{
  "locations": [
    {
      "id": 0,
      "name": "CAVALLINO BIANCO",
      "address": "Via Sant’Aspreno,21 Piazza Borsa",
      "phone": "+39 351 705 3231",
      "category": "restaurant",
      "website": "https://www.facebook.com/cavallinobianco1890/",
      "image": "cavallinoBianco",
      "latitude": 40.844198,
      "longitude": 14.254752,
    },
    {
      "id": 1,
      "name": "IL GATTO",
      "address": "Suor Orsola Benincasa – Corso Vittorio Emanuele",
      "phone": "0812522257",
      "category": "bar",
      "website": "https://restaurantguru.it/Bar-Suor-Orsola-Benincasa-Naples",
      "image": "ilGatto",
      "latitude":  40.841600,
      "longitude": 14.243677,
    },
    {
      "id": 2,
      "name": "AMALTEA",
      "address": "SAPORI CAMPANI VIA ACTON, 38",
      "phone": "0812543267",
      "category": "bar",
      "website": "https://www.yelp.com/biz/amaltea-napoli",
      "image": "amaltea",
      "latitude":  40.838000,
      "longitude": 14.253826,
    },
    {
      "id": 3,
      "name": "SAPORI CAMPANI",
      "address": "via G. Parisi, 13",
      "phone": "0812456675",
      "category": "bar",
      "website": "http://www.saporicampani.com/",
      "image": "saporiCampani",
      "latitude":  40.832308,
      "longitude": 14.243858,
    },
    {
      "id": 4,
      "name": "GRAN CAFFE’ SANTOS",
      "address": "Via Giulio Cesare, 164/168",
      "phone": "081 624341",
      "category": "bar",
      "website": "https://it-it.facebook.com/caffesantosroma/",
      "image": "granCaffeSantos",
      "latitude":  40.823568,
      "longitude": 14.195076,
    },
    {
      "id": 5,
      "name": "O’ MURZILLO",
      "address": "Via Lepanto, 106/114",
      "phone": "081 593 7706",
      "category": "restauranr",
      "website": "https://it-it.facebook.com/gustosapore/",
      "image": "oMurzillo",
      "latitude":  40.826834,
      "longitude": 14.195795,
    },
    {
      "id": 6,
      "name": "LES FLEURS",
      "address": "Via Nuova Agnano, 25",
      "phone": "+39 081 5706081",
      "category": "restaurant",
      "website": "https://it-it.facebook.com/lesfleurslounge/",
      "image": " ",
      "latitude":  40.819146,
      "longitude": 14.175064,
    },
    {
      "id": 7,
      "name": "CAFFETTERIA DEGLI ANGELI",
      "address": "Piazzale Tecchio, 95/97",
      "phone": "081 624247",
      "category": "bar",
      "website": " https://m.facebook.com/profile.php?id=100048586665598",
      "image": "lesFleurs",
      "latitude":  40.824148,
      "longitude": 14.194870,
    },
    {
      "id": 8,
      "name": "GAMBERO ROSSO",
      "address": "Via F.Morosini, 6/8",
      "phone": "3397101664",
      "category": "restaurant",
      "website": "https://www.facebook.com/algamberorossofuorigrotta",
      "image": "gamberoRosso",
      "latitude":  40.825888,
      "longitude": 14.195579,
    },
    {
      "id": 9,
      "name": "BELLA NAPOLI",
      "address": "Via F.Galeota, 35/37",
      "phone": "081628749",
      "category": "restaurant",
      "website": "https://it-it.facebook.com/bellanapoli99/",
      "image": "bellaNapoli",
      "latitude":  40.827984,
      "longitude": 14.195978,
    },
    {
      "id": 10,
      "name": "Polo delle tecnologie e delle scienze di Agnano",
      "address": "Via Nuova Agnano, 11",
      "phone": "081 760 3111",
      "category": "canteen",
      "website": "www.adisurcampania.it",
      "image": "polloScienze",
      "latitude":  40.842115,
      "longitude": 14.255949,
    },
    {
      "id": 11,
      "name": "LA FOCACCIA",
      "address": "Via Giulio Cesare ",
      "phone": "081625162",
      "category": "restaurant",
      "website": "http://www.laverafocaccia.blogspot.it/",
      "image": "laFocaccia",
      "latitude":  40.824392,
      "longitude": 14.197315,
    },
    {
      "id": 12,
      "name": "MENSA BIOLOGICA",
      "address": "Monte Sant’Angelo Edifici 7 D-F ",
      "phone": "081625162",
      "category": "canteen",
      "website": "www.adisurcampania.it",
      "image": "mensaBiologica",
      "latitude":  40.839780,
      "longitude": 14.185302,
    },
    {
      "id": 13,
      "name": "BURGER BEER",
      "address": "Via Cinthia, 3",
      "phone": "081628749",
      "category": "restaurant",
      "website": "https://www.facebook.com/iacolaburgerbeer/",
      "image": "burgerBeer",
      "latitude":  40.836131,
      "longitude": 14.191302,
    },
    {
      "id": 14,
      "name": "EL.VI",
      "address": "Via Tommaso de Amicis, 14",
      "phone": "+39 081 5873586",
      "category": "restaurant",
      "website": "https://www.informazione-aziende.it/Azienda_ELVI-SRL-6EF1C",
      "image": "elVi",
      "latitude":  40.868808,
      "longitude": 14.222819,
    },
    {
      "id": 15,
      "name": "A&C private",
      "address": "Riviera di Chiaia, N. 276,",
      "phone": "081 546 8871",
      "category": "canteen",
      "website": "http://aecprivate.com/",
      "image": "a&cPrivate",
      "latitude":  40.869505,
      "longitude": 14.219023,
    },
    {
      "id": 16,
      "name": "CANTINELLA DO’ CUNVENTO",
      "address": "Via Università, PORTICI",
      "phone": "+39 081 7755301",
      "category": "pizzeria",
      "website": "facebook.com",
      "image": "cantinellaDoCunvento",
      "latitude":  40.812206,
      "longitude": 14.340991,
    },
    {
      "id": 17,
      "name": "GALA SAS",
      "address": "Corso Gran Priorato di Malta, 21",
      "phone": "3391646907",
      "category": "bar",
      "website": "facebook.com",
      "image": "galaSAS",
      "latitude":  41.1067250,
      "longitude": 14.2132828,
    },
    {
      "id": 18,
      "name": "NICOLO’ YOUNG",
      "address": "Via Camillo Benso Cavour, n.16",
      "phone": "081 1882 7984",
      "category": "bar",
      "website": "https://www.fornerianicolo.it",
      "image": "nicoloYoung",
      "latitude":  40.972493702440396,
      "longitude": 14.208270882019471,
    },
    {
      "id": 19,
      "name": "CAFFETTERIA ANDREOZZI",
      "address": "Viale Europa AVERSA",
      "phone": "081 814 5597",
      "category": "bar",
      "website": "facebook.com",
      "image": "caffetteriaAndreozzi",
      "latitude":  40.984543,
      "longitude": 14.198512,
    },
    {
      "id": 20,
      "name": "RENDEZ VOUS",
      "address": "Via Raffaello, 12 ",
      "phone": "081 304 3861",
      "category": "restaurant",
      "website": "https://www.facebook.com/complessolapineta.aversa/",
      "image": "rendezVous",
      "latitude":  40.968115,
      "longitude": 14.207078,
    },
    {
      "id": 21,
      "name": "ENO WINE BISTROT",
      "address": "Via Torretta, 11",
      "phone": "081 1813 9133",
      "category": "restaurant",
      "website": "https://www.facebook.com/enowinebistrotaversa/",
      "image": "enoWineBistrot",
      "latitude":  40.96857008658423,
      "longitude": 14.20988062959283,
    },
    {
      "id": 22,
      "name": "MO.CA ALLERIA BAR",
      "address": "Via Michelangelo, 178",
      "phone": "081 304 3387",
      "category": "bar",
      "website": "https://www.facebook.com/alleria.aversa/",
      "image": "moCaAlleriaBar",
      "latitude":  40.9673976651191,
      "longitude": 14.198515182542815,
    },
    {
      "id": 23,
      "name": "PASCO PIZZERIA DEL CASERTANO",
      "address": "Viale Lincoln, 25",
      "phone": "393 874 6992",
      "category": "pizzeria",
      "website": "https://www.facebook.com/pizzeriadalcasertano/",
      "image": "pascoPizzeriaDelCasertano",
      "latitude":  40.841600,
      "longitude": 14.243677,
    },
    {
      "id": 25,
      "name": "MA.FA.DA.",
      "address": "VIA REMO MAGGETTI CE",
      "phone": "0823279797",
      "category": "bar",
      "website": "https://m.facebook.com/profile.php?id=100070445411875",
      "image": "maFaDa",
      "latitude":  41.06529,
      "longitude": 14.34426,
    },
    {
      "id": 26,
      "name": "BAR ERASMUS",
      "address": "VIA MARTIRI DEL DISSENSO",
      "phone": "0823586435",
      "category": "bar",
      "website": "https://www.google.it/url?sa=t&source=web&cd=&ved=2ahUKEwiB_Nauj-f7AhX-qXIEHWK8BFoQFnoECCoQAQ&url=https%3A%2F%2Fm.facebook.com%2FErasmusCoffeeBar%2F&usg=AOvVaw0C85wJDciVUuMrggUT_vzK",
      "image": "barErasmus",
      "latitude":  41.087304,
      "longitude": 14.255499,
    },
    {
      "id": 27,
      "name": "EP SPA",
      "address": "VIA ENRICO TAZZOLI",
      "phone": "0815930685",
      "category": "canteen",
      "website": "facebook.com",
      "image": "epSpa",
      "latitude":  41.087050,
      "longitude": 14.334900,
    },
    {
      "id": 28,
      "name": "DUSSMAN",
      "address": "STRADA COMUNALI ARCHI IV CANCELLI",
      "phone": "0825 203111",
      "category": "canteen",
      "website": "",
      "image": "dussman",
      "latitude":  40.925551,
      "longitude": 14.799968,
    },
    {
      "id": 29,
      "name": "GEMEAS ELIOR ospedale S.Pio",
      "address": "VIA PACEVECCHIA",
      "phone": "082457111",
      "category": "canteen",
      "website": "www.ao-rummo.it",
      "image": "gemeasElior",
      "latitude":  41.11996,
      "longitude": 14.79744,
    },
  ]
}


